{
    "1333.T": {
        "full_address": "2-20, 3-Chome, Toyosu, Tokyo, 135-8608, Japan",
        "latitude": 35.6570921,
        "longitude": 139.7954903,
        "employees": 12479,
        "website": "https://www.umios.com/jp"
    },
    "1605.T": {
        "full_address": "Akasaka Biz Tower, Minato, 107-6332, Japan",
        "latitude": 35.6731186,
        "longitude": 139.7362,
        "employees": 3720,
        "website": "https://www.inpex.com"
    },
    "1721.T": {
        "full_address": "17-1 Higashigotanda 2-chome, Tokyo, 141-8647, Japan",
        "latitude": 35.6234698,
        "longitude": 139.7290571,
        "employees": "",
        "website": "https://www.comsys-hd.co.jp"
    },
    "1801.T": {
        "full_address": "Shinjuku Center Building, Shinjuku, 163-0606, Japan",
        "latitude": 35.691712,
        "longitude": 139.6954682,
        "employees": 18503,
        "website": "https://www.taisei.co.jp"
    },
    "1803.T": {
        "full_address": "2-16-1 Kyobashi, Tokyo, 104-8370, Japan",
        "latitude": 35.6758835,
        "longitude": 139.7717019,
        "employees": "",
        "website": "https://www.shimz.co.jp"
    },
    "1808.T": {
        "full_address": "32-1 Shiba 2-chome, Tokyo, 105-8507, Japan",
        "latitude": 35.6513704,
        "longitude": 139.7518913,
        "employees": "",
        "website": "https://www.haseko.co.jp"
    },
    "1925.T": {
        "full_address": "3-3-5 Umeda, Kita, 530-8241, Japan",
        "latitude": 34.7008328,
        "longitude": 135.4938815,
        "employees": 55712,
        "website": "https://www.daiwahouse.co.jp"
    },
    "1963.T": {
        "full_address": "2-3-1, Minato Mirai, Yokohama, 220-6001, Japan",
        "latitude": 35.4594441,
        "longitude": 139.6323669,
        "employees": "",
        "website": "https://www.jgc.com"
    },
    "2269.T": {
        "full_address": "2-4-16, Kyobashi, Tokyo, 104-0031, Japan",
        "latitude": 35.6758835,
        "longitude": 139.7717019,
        "employees": "",
        "website": "https://www.meiji.com"
    },
    "2282.T": {
        "full_address": "Breeze Tower, Osaka, 530-0001, Japan",
        "latitude": 34.6986403,
        "longitude": 135.4938657,
        "employees": "",
        "website": "https://www.nipponham.co.jp"
    },
    "2413.T": {
        "full_address": "Akasaka Intercity, Tokyo, 107-0052, Japan",
        "latitude": 35.6688109,
        "longitude": 139.7424392,
        "employees": "",
        "website": "https://corporate.m3.com"
    },
    "2432.T": {
        "full_address": "Shibuya Scramble Square, Tokyo, 150-6140, Japan",
        "latitude": 35.6583792,
        "longitude": 139.7022161,
        "employees": "",
        "website": "https://dena.com/intl"
    },
    "2501.T": {
        "full_address": "20-1, Ebisu 4-chome, Shibuya, 150-8522, Japan",
        "latitude": 35.6449777,
        "longitude": 139.7139662,
        "employees": 6102,
        "website": "https://www.sapporoholdings.jp"
    },
    "2502.T": {
        "full_address": "1-23-1 Azumabashi, Tokyo, 130-8602, Japan",
        "latitude": 35.7093428,
        "longitude": 139.8030214,
        "employees": 28173,
        "website": "https://www.asahigroup-holdings.com/en/"
    },
    "2503.T": {
        "full_address": "Nakano Central Park South, Nakano, 164-0001, Japan",
        "latitude": 35.7069338,
        "longitude": 139.6617198,
        "employees": 31144,
        "website": "https://www.kirinholdings.com/jp/"
    },
    "2768.T": {
        "full_address": "1-1, Uchisaiwaicho 2-chome, Tokyo, 100-8691, Japan",
        "latitude": 35.6709858,
        "longitude": 139.7526507,
        "employees": 26789,
        "website": "https://www.sojitz.com"
    },
    "2801.T": {
        "full_address": "250 Noda, Noda, 278-8601, Japan",
        "latitude": 35.9483936,
        "longitude": 139.8679835,
        "employees": "",
        "website": "https://www.kikkoman.com/jp/"
    },
    "2802.T": {
        "full_address": "15-1, Kyobashi 1-chome, Tokyo, 104-8315, Japan",
        "latitude": 35.678152,
        "longitude": 139.772166,
        "employees": 34787,
        "website": "https://www.ajinomoto.co.jp"
    },
    "2871.T": {
        "full_address": "Nichirei Higashi-Ginza Building, Tokyo, 104-8402, Japan",
        "latitude": 35.6637365,
        "longitude": 139.7745799,
        "employees": 17763,
        "website": "https://www.nichirei.co.jp"
    },
    "2914.T": {
        "full_address": "1-1, Toranomon 4-chome, Tokyo, 105-6927, Japan",
        "latitude": 35.6651099,
        "longitude": 139.7453425,
        "employees": 52867,
        "website": "https://www.jt.com"
    },
    "3086.T": {
        "full_address": "6-10-1 Ginza, Chuo, Japan",
        "latitude": 35.6695326,
        "longitude": 139.764049,
        "employees": 5584,
        "website": "https://www.j-front-retailing.com"
    },
    "3099.T": {
        "full_address": "5-16-10 Shinjuku, Shinjuku, 160-0022, Japan",
        "latitude": 35.6935771,
        "longitude": 139.7004963,
        "employees": 8670,
        "website": "https://www.imhds.co.jp"
    },
    "3101.T": {
        "full_address": "Osaka Umeda Twin Towers South, Osaka, 530-0001, Japan",
        "latitude": 34.7009804,
        "longitude": 135.4976698,
        "employees": 9398,
        "website": "https://www.toyobo-global.com"
    },
    "3103.T": {
        "full_address": "Osaka Center Building, Osaka, 541-8566, Japan",
        "latitude": 34.6381291,
        "longitude": 135.4148351,
        "employees": "",
        "website": "https://www.unitika.co.jp"
    },
    "3289.T": {
        "full_address": "Shibuya Solasta, Tokyo, 150-0043, Japan",
        "latitude": 35.6563754,
        "longitude": 139.6964751,
        "employees": "",
        "website": "https://www.tokyu-fudosan-hd.co.jp"
    },
    "3382.T": {
        "full_address": "8-8, Nibancho, Chiyoda, 102-8452, Japan",
        "latitude": 35.6853076,
        "longitude": 139.7334714,
        "employees": 35967,
        "website": "https://www.7andi.com"
    },
    "3402.T": {
        "full_address": "Nihonbashi Mitsui Tower, Tokyo, 103-8666, Japan",
        "latitude": 35.6879574,
        "longitude": 139.7724472,
        "employees": "",
        "website": "https://www.toray.co.jp"
    },
    "3405.T": {
        "full_address": "Tokiwabashi Tower, Chiyoda, 100-0004, Japan",
        "latitude": 35.6841729,
        "longitude": 139.770614,
        "employees": 12117,
        "website": "https://www.kuraray.com"
    },
    "3659.T": {
        "full_address": "1-4-5 Roppongi, Tokyo, 106-0032, Japan",
        "latitude": 35.6624568,
        "longitude": 139.7334981,
        "employees": 9834,
        "website": "https://www.nexon.co.jp"
    },
    "3861.T": {
        "full_address": "7-5, Ginza 4-chome, Chuo, 104-0061, Japan",
        "latitude": 35.67117,
        "longitude": 139.766249,
        "employees": 38757,
        "website": "https://www.ojiholdings.co.jp"
    },
    "3863.T": {
        "full_address": "4-6 Kanda Surugadai, Tokyo, 101-0062, Japan",
        "latitude": 35.6982923,
        "longitude": 139.7638607,
        "employees": "",
        "website": "https://www.nipponpapergroup.com"
    },
    "4004.T": {
        "full_address": "Tokyo Shiodome Building, Tokyo, 105-7325, Japan",
        "latitude": 35.6629928,
        "longitude": 139.7611986,
        "employees": 21525,
        "website": "https://www.resonac.com"
    },
    "4021.T": {
        "full_address": "5-1, Nihonbashi 2-Chome, Tokyo, 103-6119, Japan",
        "latitude": 35.6814904,
        "longitude": 139.7737088,
        "employees": "",
        "website": "https://www.nissanchem.co.jp"
    },
    "4043.T": {
        "full_address": "Front Place Akihabara, Tokyo, 101-8618, Japan",
        "latitude": 35.6995538,
        "longitude": 139.7700119,
        "employees": "",
        "website": "https://www.tokuyama.co.jp"
    },
    "4061.T": {
        "full_address": "Nihonbashi Mitsui Tower, Chuo, 103-8338, Japan",
        "latitude": 35.6879574,
        "longitude": 139.7724472,
        "employees": 6454,
        "website": "https://www.denka.co.jp"
    },
    "4183.T": {
        "full_address": "Tokyo Midtown Yaesu, Tokyo, 104-0028, Japan",
        "latitude": 35.6792973,
        "longitude": 139.7690941,
        "employees": 16967,
        "website": "https://jp.mitsuichemicals.com/en"
    },
    "4188.T": {
        "full_address": "1-1 Marunouchi 1-chome, Chiyoda, 100-8251, Japan",
        "latitude": 35.6853311,
        "longitude": 139.7615043,
        "employees": "",
        "website": "https://www.mcgc.com"
    },
    "4502.T": {
        "full_address": "1-1, Nihonbashi-Honcho 2-chome, Chuo, 103-8668, Japan",
        "latitude": 35.6876317,
        "longitude": 139.7745467,
        "employees": 47029,
        "website": "https://www.takeda.com"
    },
    "4503.T": {
        "full_address": "2-5-1, Nihonbashi-Honcho, Chuo, 103-8411, Japan",
        "latitude": 35.6878892,
        "longitude": 139.7754733,
        "employees": 14099,
        "website": "https://www.astellas.com"
    },
    "4506.T": {
        "full_address": "6-8, Doshomachi 2-chome, Osaka, 541-0045, Japan",
        "latitude": 34.6884656,
        "longitude": 135.505109,
        "employees": "",
        "website": "https://www.sumitomo-pharma.com"
    },
    "4519.T": {
        "full_address": "Nihonbashi Mitsui Tower, Chuo, 103-8324, Japan",
        "latitude": 35.6879574,
        "longitude": 139.7724472,
        "employees": 5104,
        "website": "https://www.chugai-pharm.co.jp"
    },
    "4523.T": {
        "full_address": "4-6-10 Koishikawa, Tokyo, 112-8088, Japan",
        "latitude": 35.7131491,
        "longitude": 139.7460916,
        "employees": 10543,
        "website": "https://www.eisai.co.jp"
    },
    "4578.T": {
        "full_address": "2-9 Kanda-Tsukasamachi, Chiyoda, 101-0048, Japan",
        "latitude": 35.6935785,
        "longitude": 139.7674863,
        "employees": 37758,
        "website": "https://www.otsuka.com"
    },
    "4631.T": {
        "full_address": "DIC Building, Tokyo, 103-8233, Japan",
        "latitude": 35.6799625,
        "longitude": 139.7727487,
        "employees": 20884,
        "website": "https://www.dic-global.com"
    },
    "4689.T": {
        "full_address": "Kioi Tower, Chiyoda, 102-8282, Japan",
        "latitude": 35.6794934,
        "longitude": 139.7370003,
        "employees": "",
        "website": "https://www.lycorp.co.jp/ja"
    },
    "4704.T": {
        "full_address": "JR Shinjuku Miraina Tower, Shinjuku, 160-0022, Japan",
        "latitude": 35.6887825,
        "longitude": 139.7019059,
        "employees": 6717,
        "website": "https://www.trendmicro.com"
    },
    "4751.T": {
        "full_address": "Abema Towers, Shibuya, 150-0042, Japan",
        "latitude": 35.6624347,
        "longitude": 139.6962401,
        "employees": 8150,
        "website": "https://www.cyberagent.co.jp"
    },
    "4755.T": {
        "full_address": "Rakuten Crimson House, Setagaya, 158-0094, Japan",
        "latitude": 35.6104622,
        "longitude": 139.6301068,
        "employees": 29419,
        "website": "https://global.rakuten.com/corp"
    },
    "4901.T": {
        "full_address": "7-3, Akasaka 9-chome, Minato, 107-0052, Japan",
        "latitude": 35.6665515,
        "longitude": 139.7304649,
        "employees": "",
        "website": "https://holdings.fujifilm.com"
    },
    "4902.T": {
        "full_address": "JP Tower, Tokyo, 100-7015, Japan",
        "latitude": 35.679647,
        "longitude": 139.7648033,
        "employees": 34363,
        "website": "https://www.konicaminolta.com"
    },
    "5019.T": {
        "full_address": "1-2-1 Otemachi, Chiyoda, 100-8321, Japan",
        "latitude": 35.6868132,
        "longitude": 139.76608,
        "employees": 14392,
        "website": "https://www.idemitsu.com"
    },
    "5020.T": {
        "full_address": "1-1-2, Otemachi, Tokyo, 100-8162, Japan",
        "latitude": 35.6868132,
        "longitude": 139.76608,
        "employees": "",
        "website": "https://www.hd.eneos.co.jp"
    },
    "5101.T": {
        "full_address": "2-1 Oiwake, Hiratsuka, 254-8601, Japan",
        "latitude": 35.337371,
        "longitude": 139.341919,
        "employees": 34471,
        "website": "https://www.y-yokohama.com"
    },
    "5108.T": {
        "full_address": "3-1-1 Kyobashi, Chuo, 104-8340, Japan",
        "latitude": 35.6758835,
        "longitude": 139.7717019,
        "employees": 115716,
        "website": "https://www.bridgestone.co.jp"
    },
    "5201.T": {
        "full_address": "1-5-1, Marunouchi, Chiyoda, 100-8405, Japan",
        "latitude": 35.6790703,
        "longitude": 139.7652988,
        "employees": 52896,
        "website": "https://www.agc.com"
    },
    "5214.T": {
        "full_address": "7-1, Seiran 2-chome, Otsu, 520-8639, Japan",
        "latitude": 34.9828715,
        "longitude": 135.8988243,
        "employees": 5218,
        "website": "https://www.neg.co.jp"
    },
    "5301.T": {
        "full_address": "Aoyama Building, Tokyo, 107-8636, Japan",
        "latitude": 35.6730174,
        "longitude": 139.7232379,
        "employees": 4436,
        "website": "https://www.tokaicarbon.co.jp"
    },
    "5332.T": {
        "full_address": "1-1, Nakashima 2-chome, Kitakyushu, 802-8601, Japan",
        "latitude": 33.8751412,
        "longitude": 130.8748269,
        "employees": 30324,
        "website": "https://jp.toto.com"
    },
    "5401.T": {
        "full_address": "2-6-1, Marunouchi, Tokyo, 100-8071, Japan",
        "latitude": 35.6790703,
        "longitude": 139.7652988,
        "employees": "",
        "website": "https://www.nipponsteel.com"
    },
    "5411.T": {
        "full_address": "2-2-3 Uchisaiwaicho, Chiyoda, 100-0011, Japan",
        "latitude": 35.6699956,
        "longitude": 139.7570758,
        "employees": "",
        "website": "https://www.jfe-holdings.co.jp"
    },
    "5706.T": {
        "full_address": "1-11-1 Osaki, Tokyo, 141-8584, Japan",
        "latitude": 35.620241,
        "longitude": 139.7260761,
        "employees": "",
        "website": "https://www.mitsui-kinzoku.com"
    },
    "5711.T": {
        "full_address": "Marunouchi Nijubashi Building, Chiyoda, 100-8117, Japan",
        "latitude": 35.677769,
        "longitude": 139.7614608,
        "employees": "",
        "website": "https://www.mmc.co.jp"
    },
    "5714.T": {
        "full_address": "Akihabara UDX, Tokyo, 101-0021, Japan",
        "latitude": 35.7003697,
        "longitude": 139.7726097,
        "employees": "",
        "website": "https://hd.dowa.co.jp"
    },
    "5801.T": {
        "full_address": "Tokiwabashi Tower, Chiyoda, 100-8322, Japan",
        "latitude": 35.6841729,
        "longitude": 139.770614,
        "employees": "",
        "website": "https://www.furukawa.co.jp"
    },
    "5802.T": {
        "full_address": "Sumitomo Building, Chuo, 541-0041, Japan",
        "latitude": 35.6972735,
        "longitude": 139.6835523,
        "employees": "",
        "website": "https://sumitomoelectric.com"
    },
    "5803.T": {
        "full_address": "1-5-1, Kiba, Tokyo, 135-8512, Japan",
        "latitude": 35.6714772,
        "longitude": 139.8057495,
        "employees": "",
        "website": "https://www.fujikura.co.jp"
    },
    "6098.T": {
        "full_address": "1-9-2 Marunouchi, Tokyo, 100-6610, Japan",
        "latitude": 35.6790703,
        "longitude": 139.7652988,
        "employees": 45586,
        "website": "https://recruit-holdings.com"
    },
    "6103.T": {
        "full_address": "Oguchi-cho, Niwa, 480-0193, Japan",
        "latitude": 35.3323912,
        "longitude": 136.9080051,
        "employees": "",
        "website": "https://www.okuma.co.jp"
    },
    "6113.T": {
        "full_address": "200, Ishida, Isehara, 259-1196, Japan",
        "latitude": 35.4161819,
        "longitude": 139.3410235,
        "employees": "",
        "website": "https://www.amada.co.jp"
    },
    "6178.T": {
        "full_address": "2-3-1 Otemachi, Tokyo, 100-8791, Japan",
        "latitude": 35.6868132,
        "longitude": 139.76608,
        "employees": "",
        "website": "https://japanpost.jp"
    },
    "6301.T": {
        "full_address": "Shiodome Building, Tokyo, 105-8316, Japan",
        "latitude": 35.6568282,
        "longitude": 139.7593937,
        "employees": "",
        "website": "https://www.komatsu.jp"
    },
    "6302.T": {
        "full_address": "ThinkPark Tower, Tokyo, 141-6025, Japan",
        "latitude": 35.6178229,
        "longitude": 139.7274363,
        "employees": 25123,
        "website": "https://www.shi.co.jp"
    },
    "6305.T": {
        "full_address": "16-1, Higashiueno 2-chome, Tokyo, 110-0015, Japan",
        "latitude": 35.7093102,
        "longitude": 139.7769034,
        "employees": "",
        "website": "https://www.hitachicm.com"
    },
    "6326.T": {
        "full_address": "2-47 Shikitsu Higashi 1-chome, Osaka, 556-8601, Japan",
        "latitude": 34.6586646,
        "longitude": 135.5002188,
        "employees": 52503,
        "website": "https://www.kubota.co.jp"
    },
    "6367.T": {
        "full_address": "Osaka Umeda Twin Towers South, Osaka, 530-0001, Japan",
        "latitude": 34.7009804,
        "longitude": 135.4976698,
        "employees": "",
        "website": "https://www.daikin.com"
    },
    "6471.T": {
        "full_address": "Nissei Building, Tokyo, 141-8560, Japan",
        "latitude": 35.6201184,
        "longitude": 139.7299791,
        "employees": 26278,
        "website": "https://www.nsk.com/index.html"
    },
    "6501.T": {
        "full_address": "6-6, Marunouchi 1-chome, Tokyo, 100-8280, Japan",
        "latitude": 35.68156,
        "longitude": 139.767201,
        "employees": "",
        "website": "https://www.hitachi.com/ja-jp"
    },
    "6503.T": {
        "full_address": "Tokyo Building, Chiyoda, 100-8310, Japan",
        "latitude": 35.6784426,
        "longitude": 139.7648084,
        "employees": 150386,
        "website": "https://www.mitsubishielectric.com"
    },
    "6506.T": {
        "full_address": "2-1 Kurosakishiroishi, Kitakyushu, 806-0004, Japan",
        "latitude": 33.8690218,
        "longitude": 130.7658213,
        "employees": 12483,
        "website": "https://www.yaskawa.co.jp"
    },
    "6701.T": {
        "full_address": "7-1, Shiba 5-chome, Tokyo, 108-8001, Japan",
        "latitude": 35.647148,
        "longitude": 139.7469836,
        "employees": "",
        "website": "https://www.nec.com"
    },
    "6702.T": {
        "full_address": "4-1-1 Kamikodanaka, Kawasaki, 211-8588, Japan",
        "latitude": 35.5864654,
        "longitude": 139.6369375,
        "employees": "",
        "website": "https://global.fujitsu/en-global"
    },
    "6703.T": {
        "full_address": "1-7-12 Toranomon, Tokyo, 105-8460, Japan",
        "latitude": 35.662054,
        "longitude": 139.7441432,
        "employees": "",
        "website": "https://www.oki.com"
    },
    "6752.T": {
        "full_address": "1006 Kadoma, Kadoma, 571-8501, Japan",
        "latitude": 34.7381762,
        "longitude": 135.5750906,
        "employees": 183685,
        "website": "https://holdings.panasonic"
    },
    "6753.T": {
        "full_address": "1 Takumi-cho, Sakai, 590-8522, Japan",
        "latitude": 34.5960165,
        "longitude": 135.4333488,
        "employees": "",
        "website": "https://corporate.jp.sharp"
    },
    "6758.T": {
        "full_address": "1-7-1 Konan Minato-ku, Tokyo, 108-0075, Japan",
        "latitude": 35.6301291,
        "longitude": 139.7507521,
        "employees": 94900,
        "website": "https://www.sony.com"
    },
    "6762.T": {
        "full_address": "Nihonbashi Takashimaya Mitsui Building, Tokyo, 103-6128, Japan",
        "latitude": 35.6813165,
        "longitude": 139.7738266,
        "employees": 106545,
        "website": "https://www.tdk.com/en/index.html"
    },
    "6770.T": {
        "full_address": "1-7, Yukigaya-otsukamachi, Tokyo, 145-8501, Japan",
        "latitude": 35.5922109,
        "longitude": 139.678368,
        "employees": "",
        "website": "https://www.alpsalpine.com"
    },
    "6841.T": {
        "full_address": "9-32, Nakacho 2-chome, Musashino, 180-8750, Japan",
        "latitude": 35.706481,
        "longitude": 139.564517,
        "employees": "",
        "website": "https://www.yokogawa.com"
    },
    "6954.T": {
        "full_address": "3580 Oshino-mura, Yamanashi, 401-0597, Japan",
        "latitude": 35.4600722,
        "longitude": 138.8478637,
        "employees": "",
        "website": "https://www.fanuc.co.jp"
    },
    "6981.T": {
        "full_address": "10-1, Higashikotari 1-chome, Nagaokakyo, 617-8555, Japan",
        "latitude": 34.9244605,
        "longitude": 135.7032323,
        "employees": 74302,
        "website": "https://www.murata.com"
    },
    "6988.T": {
        "full_address": "Grand Front Osaka, Osaka, 530-0011, Japan",
        "latitude": 34.7039643,
        "longitude": 135.4947447,
        "employees": 26477,
        "website": "https://www.nitto.com/jp/en"
    },
    "7003.T": {
        "full_address": "6-4, Tsukiji 5-chome, Tokyo, 104-8439, Japan",
        "latitude": 35.6627112,
        "longitude": 139.7649443,
        "employees": "",
        "website": "https://www.mes.co.jp"
    },
    "7011.T": {
        "full_address": "2-3, Marunouchi 3-chome, Chiyoda, 100-8332, Japan",
        "latitude": 35.677769,
        "longitude": 139.7614608,
        "employees": "",
        "website": "https://www.mhi.com"
    },
    "7012.T": {
        "full_address": "1-14-5, Kaigan, Tokyo, 105-8315, Japan",
        "latitude": 35.6387548,
        "longitude": 139.7532186,
        "employees": "",
        "website": "https://global.kawasaki.com"
    },
    "7013.T": {
        "full_address": "Toyosu IHI Building, Koto, 135-8710, Japan",
        "latitude": 35.658997,
        "longitude": 139.7932065,
        "employees": "",
        "website": "https://www.ihi.co.jp"
    },
    "7186.T": {
        "full_address": "Tokyo Nihonbashi Tower, Tokyo, 103-6034, Japan",
        "latitude": 35.6818575,
        "longitude": 139.7743226,
        "employees": 6313,
        "website": "https://yokohamafg.co.jp"
    },
    "7201.T": {
        "full_address": "1-1, Takashima 1-chome, Yokohama, 220-8686, Japan",
        "latitude": 35.4634946,
        "longitude": 139.6261515,
        "employees": "",
        "website": "https://www.nissan-global.com"
    },
    "7202.T": {
        "full_address": "1-2-5, Takashima, Yokohama, 220-8720, Japan",
        "latitude": 35.4622243,
        "longitude": 139.6227788,
        "employees": "",
        "website": "https://www.isuzu.co.jp"
    },
    "7261.T": {
        "full_address": "3-1 Shinchi, Hiroshima, 730-8670, Japan",
        "latitude": 34.380837,
        "longitude": 132.501585,
        "employees": 47144,
        "website": "https://www.mazda.com"
    },
    "7269.T": {
        "full_address": "300 Takatsuka-cho, Hamamatsu, 432-8611, Japan",
        "latitude": 34.690267,
        "longitude": 137.681178,
        "employees": "",
        "website": "https://www.globalsuzuki.com"
    },
    "7731.T": {
        "full_address": "1-5-20, Nishioi, Shinagawa, 140-8601, Japan",
        "latitude": 35.5970691,
        "longitude": 139.7226401,
        "employees": "",
        "website": "https://www.nikon.com"
    },
    "7762.T": {
        "full_address": "6-1-12, Tanashi-cho, Nishitokyo, 188-8511, Japan",
        "latitude": 35.7301842,
        "longitude": 139.5419939,
        "employees": "",
        "website": "https://www.citizen.co.jp"
    },
    "7911.T": {
        "full_address": "3-3 Suido 1-chome, Tokyo, 112-8531, Japan",
        "latitude": 35.7091646,
        "longitude": 139.7414372,
        "employees": "",
        "website": "https://www.holdings.toppan.com"
    },
    "7912.T": {
        "full_address": "1-1, Ichigaya-Kagacho, Tokyo, 162-8001, Japan",
        "latitude": 35.6966944,
        "longitude": 139.7297181,
        "employees": "",
        "website": "https://www.dnp.co.jp"
    },
    "7951.T": {
        "full_address": "10-1, Nakazawa-cho, Hamamatsu, 430-8650, Japan",
        "latitude": 34.721623,
        "longitude": 137.728872,
        "employees": "",
        "website": "https://www.yamaha.com"
    },
    "8001.T": {
        "full_address": "5-1, Kita-Aoyama 2-chome, Tokyo, 107-8077, Japan",
        "latitude": 35.6715348,
        "longitude": 139.719313,
        "employees": 114570,
        "website": "https://www.itochu.co.jp"
    },
    "8015.T": {
        "full_address": "9-8, Meieki 4-chome, Nagoya, 450-8575, Japan",
        "latitude": 35.1692357,
        "longitude": 136.887076,
        "employees": "",
        "website": "https://www.toyota-tsusho.com"
    },
    "8031.T": {
        "full_address": "2-1, Otemachi 1-chome, Chiyoda, 100-8631, Japan",
        "latitude": 35.6877334,
        "longitude": 139.7624452,
        "employees": 55463,
        "website": "https://www.mitsui.com/jp/en/"
    },
    "8035.T": {
        "full_address": "Akasaka Biz Tower, Tokyo, 107-6325, Japan",
        "latitude": 35.6731186,
        "longitude": 139.7362,
        "employees": "",
        "website": "https://www.tel.com"
    },
    "8053.T": {
        "full_address": "Otemachi Place East Tower, Chiyoda, 100-8601, Japan",
        "latitude": 35.6872161,
        "longitude": 139.7680616,
        "employees": "",
        "website": "https://www.sumitomocorp.com"
    },
    "8058.T": {
        "full_address": "Mitsubishi Shoji Building, Tokyo, 100-8086, Japan",
        "latitude": 35.6810455,
        "longitude": 139.7625866,
        "employees": "",
        "website": "https://www.mitsubishicorp.com"
    },
    "8233.T": {
        "full_address": "1-5, Namba 5-chome, Chuo, 542-8510, Japan",
        "latitude": 34.6646623,
        "longitude": 135.5010775,
        "employees": 6518,
        "website": "https://www.takashimaya.co.jp"
    },
    "8252.T": {
        "full_address": "3-2, Nakano 4-chome, Tokyo, 164-8701, Japan",
        "latitude": 35.7095032,
        "longitude": 139.664459,
        "employees": "",
        "website": "https://www.0101maruigroup.co.jp"
    },
    "8267.T": {
        "full_address": "1-5-1 Nakase, Chiba, 261-8515, Japan",
        "latitude": 35.6525021,
        "longitude": 140.0396467,
        "employees": 179230,
        "website": "https://www.aeon.info"
    },
    "8304.T": {
        "full_address": "6-1-1, Kojimachi, Chiyoda, 102-8660, Japan",
        "latitude": 35.6838064,
        "longitude": 139.7379229,
        "employees": "",
        "website": "https://www.aozorabank.co.jp"
    },
    "8306.T": {
        "full_address": "4-5, Marunouchi 1-chome, Tokyo, 100-8330, Japan",
        "latitude": 35.6836703,
        "longitude": 139.7646652,
        "employees": "",
        "website": "https://www.mufg.jp"
    },
    "8309.T": {
        "full_address": "1-4-1 Marunouchi, Chiyoda, Japan",
        "latitude": 35.6790703,
        "longitude": 139.7652988,
        "employees": "",
        "website": "https://www.smtg.jp"
    },
    "8316.T": {
        "full_address": "1-2, Marunouchi 1-chome, Tokyo, 100-0005, Japan",
        "latitude": 35.6849855,
        "longitude": 139.7623942,
        "employees": "",
        "website": "https://www.smfg.co.jp"
    },
    "8411.T": {
        "full_address": "Otemachi Tower, Chiyoda, 100-8176, Japan",
        "latitude": 35.6853655,
        "longitude": 139.7653986,
        "employees": 52427,
        "website": "https://www.mizuho-fg.co.jp"
    },
    "8601.T": {
        "full_address": "GranTokyo North Tower, Tokyo, 100-6751, Japan",
        "latitude": 35.6815814,
        "longitude": 139.7690823,
        "employees": "",
        "website": "https://www.daiwa-grp.jp"
    },
    "8604.T": {
        "full_address": "13-1, Nihonbashi 1-chome, Tokyo, 103-8645, Japan",
        "latitude": 35.6822336,
        "longitude": 139.7755701,
        "employees": "",
        "website": "https://www.nomuraholdings.com"
    },
    "8628.T": {
        "full_address": "1-4, Kojimachi, Tokyo, 102-8516, Japan",
        "latitude": 35.6838064,
        "longitude": 139.7379229,
        "employees": "",
        "website": "https://www.matsui.co.jp"
    },
    "8630.T": {
        "full_address": "26-1, Nishi-Shinjuku 1-chome, Tokyo, 160-8338, Japan",
        "latitude": 35.6925857,
        "longitude": 139.6965412,
        "employees": 55702,
        "website": "https://www.sompo-hd.com"
    },
    "8725.T": {
        "full_address": "West Tower, Tokyo, 104-0033, Japan",
        "latitude": 35.6856884,
        "longitude": 139.7637347,
        "employees": "",
        "website": "https://www.ms-ad-hd.com"
    },
    "8750.T": {
        "full_address": "13-1, Yurakucho 1-chome, Tokyo, 100-8411, Japan",
        "latitude": 35.6870715,
        "longitude": 139.7660727,
        "employees": "",
        "website": "https://www.daiichilife-group.com"
    },
    "8766.T": {
        "full_address": "Tokiwabashi Tower, Tokyo, 100-0004, Japan",
        "latitude": 35.6841729,
        "longitude": 139.770614,
        "employees": "",
        "website": "https://www.tokiomarinehd.com"
    },
    "8795.T": {
        "full_address": "2-7-1, Nihonbashi, Tokyo, 103-6031, Japan",
        "latitude": 35.6812562,
        "longitude": 139.7730907,
        "employees": 21268,
        "website": "https://www.td-holdings.co.jp"
    },
    "8801.T": {
        "full_address": "1-1, Nihonbashi-Muromachi 2-chome, Tokyo, Japan",
        "latitude": 35.686841,
        "longitude": 139.773767,
        "employees": "",
        "website": "https://www.mitsuifudosan.co.jp"
    },
    "8802.T": {
        "full_address": "Otemachi Park Building, Tokyo, 100-8133, Japan",
        "latitude": 35.6867443,
        "longitude": 139.7625218,
        "employees": "",
        "website": "https://www.mec.co.jp"
    },
    "8830.T": {
        "full_address": "Shinjuku NS Building, Tokyo, 163-0820, Japan",
        "latitude": 35.689148,
        "longitude": 139.6939748,
        "employees": "",
        "website": "https://www.sumitomo-rd.co.jp"
    },
    "9001.T": {
        "full_address": "1-1-2 Oshiage, Tokyo, 131-8522, Japan",
        "latitude": 35.7125387,
        "longitude": 139.8148147,
        "employees": "",
        "website": "https://www.tobu.co.jp"
    },
    "9007.T": {
        "full_address": "2-7-1, Nishi-Shinjuku, Tokyo, 163-0706, Japan",
        "latitude": 35.690719,
        "longitude": 139.6941527,
        "employees": "",
        "website": "https://www.odakyu.jp"
    },
    "9008.T": {
        "full_address": "1-9-1 Sekido, Tokyo, 206-8502, Japan",
        "latitude": 35.6517612,
        "longitude": 139.4531994,
        "employees": "",
        "website": "https://www.keio.co.jp"
    },
    "9020.T": {
        "full_address": "2-2-2 Yoyogi, Tokyo, Japan",
        "latitude": 35.682304,
        "longitude": 139.6917362,
        "employees": 70623,
        "website": "https://www.jreast.co.jp"
    },
    "9021.T": {
        "full_address": "4-24 Shibata 2-chome, Kita, 530-8341, Japan",
        "latitude": 34.706963,
        "longitude": 135.4958108,
        "employees": 47225,
        "website": "https://www.westjr.co.jp"
    },
    "9064.T": {
        "full_address": "16-10, Ginza 2-chome, Chuo, 104-8125, Japan",
        "latitude": 35.672914,
        "longitude": 139.768126,
        "employees": 174696,
        "website": "https://www.yamato-hd.co.jp"
    },
    "9101.T": {
        "full_address": "2-3-2, Marunouchi 2 Chome, Chiyoda, 100-0005, Japan",
        "latitude": 35.680022,
        "longitude": 139.763447,
        "employees": 39830,
        "website": "https://www.nyk.com"
    },
    "9107.T": {
        "full_address": "Iino Building, Tokyo, 100-8540, Japan",
        "latitude": 35.6708701,
        "longitude": 139.7527665,
        "employees": "",
        "website": "https://www.kline.co.jp"
    },
    "9202.T": {
        "full_address": "Shiodome City Center, Minato, 105-7140, Japan",
        "latitude": 35.6653726,
        "longitude": 139.7610048,
        "employees": "",
        "website": "https://www.ana.co.jp"
    },
    "9412.T": {
        "full_address": "1-8-1 Akasaka, Minato, 107-0052, Japan",
        "latitude": 35.6716786,
        "longitude": 139.7356224,
        "employees": 769,
        "website": "https://www.skyperfectjsat.space"
    },
    "9432.T": {
        "full_address": "East Tower, Chiyoda, 100-8116, Japan",
        "latitude": 35.7007911,
        "longitude": 139.7497076,
        "employees": 344196,
        "website": "https://group.ntt"
    },
    "9433.T": {
        "full_address": "THE LINKPILLAR 1 NORTH, Tokyo, 108-8618, Japan",
        "latitude": 35.6363977,
        "longitude": 139.7402806,
        "employees": "",
        "website": "https://www.kddi.com"
    },
    "9434.T": {
        "full_address": "1-7-1 Kaigan, Minato, 105-7529, Japan",
        "latitude": 35.6452654,
        "longitude": 139.7573804,
        "employees": "",
        "website": "https://www.softbank.jp"
    },
    "9501.T": {
        "full_address": "1-1-3 Uchisaiwai-cho, Tokyo, 100-8560, Japan",
        "latitude": 35.6699956,
        "longitude": 139.7570758,
        "employees": "",
        "website": "https://www.tepco.co.jp"
    },
    "9502.T": {
        "full_address": "1 Higashi-shincho, Nagoya, 461-8680, Japan",
        "latitude": 35.1241589,
        "longitude": 136.8520764,
        "employees": "",
        "website": "https://www.chuden.co.jp"
    },
    "9503.T": {
        "full_address": "3-6-16, Nakanoshima, Osaka, 530-8270, Japan",
        "latitude": 34.6944143,
        "longitude": 135.47209,
        "employees": "",
        "website": "https://www.kepco.co.jp"
    },
    "9531.T": {
        "full_address": "1-5-20 Kaigan, Tokyo, 105-8527, Japan",
        "latitude": 35.6452654,
        "longitude": 139.7573804,
        "employees": "",
        "website": "https://www.tokyo-gas.co.jp"
    },
    "9532.T": {
        "full_address": "4-1-2, Hiranomachi, Osaka, 541-0046, Japan",
        "latitude": 34.6878132,
        "longitude": 135.4992169,
        "employees": "",
        "website": "https://www.osakagas.co.jp"
    },
    "9602.T": {
        "full_address": "1-2-2 Yurakucho, Chiyoda, Japan",
        "latitude": 35.6736817,
        "longitude": 139.7611853,
        "employees": 4088,
        "website": "https://toho.co.jp"
    },
    "9735.T": {
        "full_address": "5-1, Jingumae 1-chome, Tokyo, 150-0001, Japan",
        "latitude": 35.6712737,
        "longitude": 139.7070912,
        "employees": "",
        "website": "https://www.secom.co.jp"
    },
    "9766.T": {
        "full_address": "1-11-1, Ginza, Tokyo, 104-0061, Japan",
        "latitude": 35.6720135,
        "longitude": 139.7647202,
        "employees": "",
        "website": "https://www.konami.com"
    },
    "9984.T": {
        "full_address": "1-7-1, Kaigan, Tokyo, 105-7537, Japan",
        "latitude": 35.6452654,
        "longitude": 139.7573804,
        "employees": "",
        "website": "https://group.softbank"
    }
}